{
    "type": "FeatureCollection",
    "features": [
        {
            "type": "Feature",
            "properties": {
                "id": "3"
            },
            "geometry": {
                "type": "Point",
                "coordinates": [
                    99.044631666667001,
                    18.634955000000001
                ]
            },
            "content": {
                "devi_name": "VT900 FWเก่า",
                "servertime": "2019-05-24 15:14:39"
            }
        },
        {
            "type": "Feature",
            "properties": {
                "id": "4"
            },
            "geometry": {
                "type": "Point",
                "coordinates": [
                    99.044681666667003,
                    18.63531
                ]
            },
            "content": {
                "devi_name": "VT900 FWใหม่",
                "servertime": "2019-03-19 11:23:26"
            }
        },
        {
            "type": "Feature",
            "properties": {
                "id": "5"
            },
            "geometry": {
                "type": "Point",
                "coordinates": [
                    99.044645000000003,
                    18.635276666667
                ]
            },
            "content": {
                "devi_name": "VT900 FWใหม่ เครื่องธรรมดา",
                "servertime": "2019-04-12 16:07:48"
            }
        },
        {
            "type": "Feature",
            "properties": {
                "id": "6"
            },
            "geometry": {
                "type": "Point",
                "coordinates": [
                    99.044685000000001,
                    18.635249999999999
                ]
            },
            "content": {
                "devi_name": "VT900 ช่างตรี",
                "servertime": "2019-04-28 10:36:57"
            }
        },
        {
            "type": "Feature",
            "properties": {
                "id": "7"
            },
            "geometry": {
                "type": "Point",
                "coordinates": [
                    99.044730000000001,
                    18.63532
                ]
            },
            "content": {
                "devi_name": "VT900 FW V1.73 ",
                "servertime": "2019-05-23 09:12:21"
            }
        },
        {
            "type": "Feature",
            "properties": {
                "id": "8"
            },
            "geometry": {
                "type": "Point",
                "coordinates": [
                    100.08015,
                    16.803985000000001
                ]
            },
            "content": {
                "devi_name": "VT900 TEST berm",
                "servertime": "2019-05-19 14:50:15"
            }
        }
    ]
}